City_ID,City,Lat,Lng,Max Temp,Humidity,Cloudiness,Wind Speed,Country,Date
0,edinburgh of the seven seas,-37.0676,-12.3116,11.93,80,25,16.34,SH,1723655582
1,pacific grove,36.6177,-121.9166,19.1,87,20,3.6,US,1723655585
2,queenstown,-31.8976,26.8753,8.94,35,0,6.41,ZA,1723655587
3,adamstown,-25.066,-130.1015,20.95,92,88,5.84,PN,1723655588
4,hadibu,12.65,54.0333,26.2,81,41,6.89,YE,1723655590
5,tura,25.5198,90.2201,25.52,92,98,1.49,IN,1723655591
6,stanley,54.868,-1.6985,20.44,64,20,2.06,GB,1723655592
7,rio gallegos,-51.6226,-69.2181,5.38,64,100,1.91,AR,1723655594
8,port-aux-francais,-49.35,70.2167,2.94,87,70,9.08,TF,1723655595
9,cold lake,54.4502,-110.2017,18.78,62,84,2.08,CA,1723655597
10,fort bragg,35.139,-79.006,29.82,51,0,1.79,US,1723655598
11,bethel,41.3712,-73.414,28.62,58,20,3.6,US,1723655600
12,ribeira grande,38.5167,-28.7,27.22,74,20,4.92,PT,1723655601
13,lata,40.1629,-8.3327,26.62,41,70,4.43,PT,1723655602
14,blackmans bay,-43.0167,147.3167,8.18,93,90,0.45,AU,1723655604
15,hamilton,39.1834,-84.5333,31.11,43,0,3.09,US,1723655605
16,carnarvon,-24.8667,113.6333,19.01,73,0,3.57,AU,1723655607
17,atafu village,-8.5421,-172.5159,28.06,70,9,4.01,TK,1723655608
18,ouesso,1.6136,16.0517,25.31,75,77,1.3,CG,1723655609
19,launceston,-41.45,147.1667,9.8,100,100,2.57,AU,1723655611
20,minab,27.1467,57.0801,31.45,69,14,1.82,IR,1723655612
21,cassilandia,-19.1133,-51.7342,32.62,10,10,2.43,BR,1723655614
22,dakhla,23.6848,-15.958,25.01,69,9,13.38,EH,1723655615
23,invercargill,-46.4,168.35,11.12,69,100,4.92,NZ,1723655617
24,alofi,-19.0595,-169.9187,18.94,88,75,2.06,NU,1723655618
25,port elizabeth,-33.918,25.5701,14.5,64,75,13.89,ZA,1723655619
26,portland,45.5234,-122.6762,20.48,73,75,2.06,US,1723654988
27,lompoc,34.6391,-120.4579,25.32,75,0,0.45,US,1723655622
28,togur,58.3631,82.8265,16.39,92,3,2.29,RU,1723655624
29,klyuchi,52.2667,79.1667,21.21,64,21,3.34,RU,1723655625
30,grytviken,-54.2811,-36.5092,-4.1,76,97,7.39,GS,1723655626
31,talara,-4.5772,-81.2719,24.42,64,0,5.14,PE,1723655628
32,xining,36.6167,101.7667,13.58,85,35,0.81,CN,1723655629
33,changde,29.0464,111.6783,26.07,82,30,2.66,CN,1723655631
34,cabo san lucas,22.8909,-109.9124,33.61,58,20,4.12,MX,1723655632
35,port moresby,-9.4431,147.1797,24.12,93,53,2.81,PG,1723655633
36,jizzax,40.1158,67.8422,30.26,27,0,1.27,UZ,1723655635
37,uzhur,55.3036,89.8339,15.99,81,31,1.72,RU,1723655638
38,hermanus,-34.4187,19.2345,11.0,65,82,4.07,ZA,1723655641
39,anadyr,64.75,177.4833,2.78,86,0,4.0,RU,1723655642
40,olonkinbyen,70.9221,-8.7187,5.53,100,100,5.3,SJ,1723655643
41,happy valley-goose bay,53.3168,-60.3315,25.17,41,75,4.63,CA,1723655645
42,puerto ayora,-0.7393,-90.3518,21.98,72,76,4.6,EC,1723655646
43,ilulissat,69.2167,-51.1,7.01,81,75,4.12,GL,1723655648
44,jamestown,42.097,-79.2353,24.73,60,75,3.09,US,1723655649
45,cole harbour,44.6724,-63.4751,22.18,78,100,2.57,CA,1723655650
46,nyala,12.05,24.8833,24.39,75,100,0.84,SD,1723655652
47,badger,64.8,-147.5333,12.21,86,75,0.45,US,1723655653
48,mumbwa,-14.9783,27.0619,22.65,19,0,2.22,ZM,1723655655
49,port augusta,-32.5,137.7667,15.48,57,62,2.38,AU,1723655656
50,paracuru,-3.41,-39.0306,27.28,48,10,8.41,BR,1723655658
51,bom jardim,-7.7958,-35.5872,28.53,44,27,8.04,BR,1723655659
52,chelsea,51.4875,-0.1694,24.14,68,100,3.09,GB,1723655660
53,iskateley,67.6803,53.1512,9.31,92,100,6.81,RU,1723655662
54,thompson,55.7435,-97.8558,26.09,53,75,4.12,CA,1723655663
55,santa ana nopalucan,19.2989,-98.3339,23.07,44,40,2.57,MX,1723655665
56,bouca,6.5105,18.2733,21.0,98,100,1.4,CF,1723655666
57,ushuaia,-54.8,-68.3,4.81,70,40,6.69,AR,1723655668
58,tralee,52.2704,-9.7026,18.14,77,100,4.12,IE,1723655669
59,yemva,62.59,50.8594,12.37,89,84,4.27,RU,1723655670
60,port mathurin,-19.6833,63.4167,22.79,76,74,11.1,MU,1723655672
61,sur,22.5667,59.5289,30.87,62,6,5.67,OM,1723655673
62,vorgashor,67.5833,63.95,13.15,82,100,7.36,RU,1723655675
63,ocean shores,46.9737,-124.1563,18.54,88,100,3.6,US,1723655678
64,miquelon,47.0975,-56.3814,17.0,79,100,2.5,PM,1723655679
65,nova sintra,14.8667,-24.7167,26.3,82,34,5.49,CV,1723655680
66,charcas,23.1333,-101.1167,20.92,50,94,4.05,MX,1723655682
67,mombasa,-4.0547,39.6636,26.23,73,20,5.14,KE,1723655683
68,albany,42.6001,-73.9662,28.29,60,4,0.45,US,1723655685
69,belyy yar,53.6039,91.3903,14.94,88,0,0.0,RU,1723655686
70,aasiaat,68.7098,-52.8699,3.99,89,100,4.28,GL,1723655688
71,mermoz boabab,14.7065,-17.4758,30.31,74,75,5.14,SN,1723655689
72,ves'yegonsk,58.664,37.2604,15.24,62,76,3.07,RU,1723655690
73,vilyuysk,63.7553,121.6247,6.18,63,90,1.89,RU,1723655692
74,abalak,58.1286,68.5944,12.44,99,69,2.4,RU,1723655693
75,kodiak,57.79,-152.4072,10.73,87,0,0.0,US,1723655695
76,lobva,59.1854,60.5185,12.16,95,74,1.39,RU,1723655696
77,warmbad,-28.45,18.7333,15.59,37,4,1.25,NA,1723655697
78,alice springs,-23.7,133.8833,7.75,57,0,0.0,AU,1723655699
79,likiep,9.8251,169.3107,28.31,75,99,7.27,MH,1723655700
80,saranac lake,44.3295,-74.1313,26.18,59,75,1.54,US,1723655703
81,las lomitas,-24.7096,-60.593,28.85,17,0,3.41,AR,1723655705
82,oranjemund,-28.55,16.4333,13.37,74,5,8.68,NA,1723655706
83,keflavik,64.0049,-22.5624,9.95,93,100,5.66,IS,1723655708
84,waitangi,-43.9535,-176.5597,9.9,89,28,4.47,NZ,1723655709
85,canillo,42.5833,1.6667,14.69,100,87,3.45,AD,1723655710
86,puerto natales,-51.7236,-72.4875,8.25,66,0,0.51,CL,1723655712
87,zemio,5.0314,25.1361,20.19,97,100,1.69,CF,1723655713
88,puerto baquerizo moreno,-0.9,-89.6,21.55,68,100,4.12,EC,1723655715
89,sitka,57.0531,-135.33,13.94,72,75,2.06,US,1723655490
90,scarborough,54.2797,-0.4044,19.76,72,22,3.63,GB,1723655717
91,novodvinsk,64.4165,40.8122,11.86,49,66,3.61,RU,1723655719
92,la passe,45.5549,-0.8967,23.13,58,38,6.85,FR,1723655720
93,san patricio,28.017,-97.5169,34.39,48,99,4.97,US,1723655722
94,margaret river,-33.95,115.0667,13.09,65,100,8.7,AU,1723655723
95,st. john's,47.5649,-52.7093,16.2,74,75,5.14,CA,1723655725
96,bilibino,68.0546,166.4372,-0.01,98,100,2.86,RU,1723655726
97,andergrove,-21.0833,149.1833,17.03,87,2,1.86,AU,1723655727
98,hilo,19.7297,-155.09,22.84,81,40,3.09,US,1723655729
99,iqaluit,63.7506,-68.5145,12.85,62,40,10.8,CA,1723655730
100,merizo village,13.2658,144.6691,26.85,80,100,5.56,GU,1723655732
101,sayaxche,16.5167,-90.1667,24.59,97,100,0.41,GT,1723655733
102,acapulco de juarez,16.8634,-99.8901,28.9,79,75,3.09,MX,1723655735
103,st anne,49.715,-2.2042,19.25,94,40,4.12,GG,1723655737
104,avarua,-21.2078,-159.775,22.03,60,40,5.66,CK,1723655739
105,touros,-5.1989,-35.4608,27.94,58,0,9.16,BR,1723655740
106,port-gentil,-0.7193,8.7815,23.87,85,88,4.17,GA,1723655742
107,hawaiian paradise park,19.5933,-154.9731,22.72,84,40,3.09,US,1723655743
108,upington,-28.4478,21.2561,14.21,35,0,2.57,ZA,1723655746
109,peace river,56.2501,-117.286,15.17,88,100,2.06,CA,1723655749
110,san antonio de pale,-1.4014,5.6325,23.12,82,41,3.68,GQ,1723655750
111,saudarkrokur,65.7461,-19.6394,10.59,82,91,4.27,IS,1723655752
112,luderitz,-26.6481,15.1594,18.65,50,0,8.83,NA,1723655754
113,bredasdorp,-34.5322,20.0403,9.56,71,83,3.38,ZA,1723655756
114,archidona,37.0965,-4.3887,31.47,34,2,0.45,ES,1723655758
115,zarand,30.8127,56.564,34.44,14,57,3.14,IR,1723655759
116,qaqortoq,60.7167,-46.0333,7.47,70,29,2.39,GL,1723655760
117,tiksi,71.6872,128.8694,5.56,71,100,2.93,RU,1723655762
118,coari,-4.085,-63.1414,28.82,54,95,0.31,BR,1723655763
119,ust'-barguzin,53.45,108.9833,13.87,98,100,3.0,RU,1723655765
120,yellowknife,62.456,-114.3525,12.29,100,100,5.66,CA,1723655766
121,lebu,-37.6167,-73.65,11.6,87,100,3.41,CL,1723655767
122,flying fish cove,-10.4217,105.6791,24.82,83,75,5.66,CX,1723655770
123,minas de marcona,-15.2119,-75.1103,17.46,51,0,4.4,PE,1723655772
124,papatowai,-46.5619,169.4708,12.28,54,100,5.61,NZ,1723655773
125,udachny,66.4167,112.4,6.89,62,61,3.01,RU,1723655774
126,sterling,39.0062,-77.4286,29.21,52,20,5.66,US,1723655776
127,petropavlovsk-kamchatsky,53.0452,158.6483,11.33,100,100,1.0,RU,1723655777
128,lamia,38.9,22.4333,31.46,37,0,2.07,GR,1723655779
129,antsiranana,-12.2787,49.2917,23.33,73,82,7.44,MG,1723655780
130,constantia,44.1833,28.65,25.39,60,0,6.86,RO,1723655781
131,port alfred,-33.5906,26.891,12.88,58,78,4.02,ZA,1723655783
132,vila franca do campo,37.7167,-25.4333,27.23,68,12,0.19,PT,1723655784
133,baiquan,47.5833,126.0833,20.57,76,93,1.88,CN,1723655786
134,usogorsk,63.4106,48.6872,13.44,71,67,3.26,RU,1723655787
135,enewetak,11.3474,162.3373,28.63,76,70,7.34,MH,1723655789
136,glace bay,46.1969,-59.957,20.44,85,100,6.69,CA,1723655790
137,el granada,37.5027,-122.4694,22.91,76,20,4.12,US,1723655791
138,inonu,37.3167,33.7667,27.53,16,0,3.48,TR,1723655794
139,sambava,-14.2667,50.1667,22.23,80,71,5.2,MG,1723655795
140,kyakhta,50.3508,106.4494,14.53,89,97,1.89,RU,1723655797
141,port hedland,-20.3167,118.5667,19.03,94,0,0.0,AU,1723655800
142,ghanzi,-21.5667,21.7833,19.07,8,0,3.83,BW,1723655801
143,amursk,50.2261,136.8994,15.86,91,2,0.64,RU,1723655803
144,karymskoye,51.6167,114.35,19.83,62,44,1.2,RU,1723655804
145,longyearbyen,78.2186,15.6401,11.91,82,75,1.54,SJ,1723655805
146,colonia,50.9333,6.95,23.19,85,0,2.57,DE,1723655807
147,college station,30.628,-96.3344,34.42,56,75,4.12,US,1723655808
148,tazacorte,28.629,-17.9293,25.54,65,20,6.69,ES,1723655810
149,catriel,-37.8791,-67.7956,19.92,25,98,5.39,AR,1723655811
150,kavaratti,10.5669,72.642,25.07,93,100,9.52,IN,1723655813
151,west island,-12.1568,96.8225,26.99,74,40,5.14,CC,1723655814
152,cabedelo,-6.9811,-34.8339,28.37,71,56,8.66,BR,1723655815
153,kuta,-8.7233,115.1723,24.97,83,20,5.14,ID,1723655817
154,college,64.8569,-147.8028,12.26,86,75,0.89,US,1723655818
155,chonchi,-42.6128,-73.8092,13.4,65,12,1.86,CL,1723655820
156,kalkaman,51.9525,76.0211,25.14,43,87,2.82,KZ,1723655821
157,mlowo,-9.0,32.9833,19.74,46,9,2.22,TZ,1723655822
158,panchgani,17.9167,73.8167,21.71,97,100,1.57,IN,1723655824
159,zebbug,35.8719,14.4411,32.88,29,0,2.57,MT,1723655825
160,la'ie,21.6477,-157.9253,25.81,81,29,2.68,US,1723655827
161,zyrya,40.3661,50.2917,28.05,65,0,4.02,AZ,1723655828
162,ulladulla,-35.35,150.4667,14.87,96,80,2.12,AU,1723655830
163,port saint john's,-31.6229,29.5448,17.63,50,0,11.25,ZA,1723655831
164,nyrob,60.733,56.7202,10.64,99,100,1.8,RU,1723655832
165,hasaki,35.7333,140.8333,26.22,89,3,1.58,JP,1723655834
166,as sulayyil,20.4607,45.5779,41.14,17,35,3.47,SA,1723655835
167,taltal,-25.4,-70.4833,16.87,68,24,1.17,CL,1723655837
168,runing,33.0011,114.3542,24.23,94,0,2.78,CN,1723655838
169,angaur state,6.906,134.13,28.3,73,100,1.17,PW,1723655840
170,khandyga,62.6667,135.6,6.23,56,2,2.81,RU,1723655841
171,shanyang,26.6702,119.2051,19.91,96,79,0.42,CN,1723655842
172,dhidhdhoo,6.8833,73.1,27.95,76,100,9.94,MV,1723655844
173,lago da pedra,-4.3333,-45.1667,37.59,23,5,3.86,BR,1723655845
174,praia da vitoria,38.7333,-27.0667,27.14,78,40,2.66,PT,1723655847
175,dunedin,-45.8742,170.5036,8.78,75,68,2.94,NZ,1723655545
176,anna regina,7.2644,-58.5077,30.68,57,10,3.41,GY,1723655849
177,san luis de la loma,17.2706,-100.8939,29.75,63,99,1.4,MX,1723655851
178,aykhal,66.0,111.5,7.03,69,99,2.64,RU,1723655852
179,saint-philippe,-21.3585,55.7679,20.77,78,48,6.26,RE,1723655854
180,goure,13.9835,10.2704,28.6,59,98,3.85,NE,1723655855
181,nova xavantina,-14.6667,-52.35,38.25,12,13,1.63,BR,1723655857
182,mejit,10.2753,170.8646,27.95,76,100,7.74,MH,1723655858
183,whitehorse,60.7161,-135.0538,6.68,95,100,2.57,CA,1723655859
184,hithadhoo,-0.6,73.0833,28.25,76,97,6.19,MV,1723655861
185,balakhta,55.38,91.6,14.87,81,78,1.68,RU,1723655862
186,nova vicosa,-17.8919,-39.3719,23.71,67,99,4.28,BR,1723655864
187,igarka,67.4667,86.5833,10.67,84,4,4.44,RU,1723655865
188,isafjordur,66.0755,-23.124,11.02,76,75,2.06,IS,1723655867
189,kalamb,19.05,73.95,25.37,87,94,2.34,IN,1723655868
190,sengiley,53.9622,48.7944,14.04,78,100,4.51,RU,1723655869
191,afaahiti,-17.75,-149.2833,21.93,83,15,3.25,PF,1723655871
192,weno,7.4515,151.8468,26.97,89,100,2.57,FM,1723655872
193,kourou,5.1552,-52.6478,33.03,54,7,4.43,GF,1723655874
194,mount isa,-20.7333,139.5,9.87,66,0,0.51,AU,1723655875
195,ashchysay,43.5542,68.8889,25.6,30,82,6.57,KZ,1723655877
196,mozarlandia,-14.7447,-50.5706,37.57,13,62,3.34,BR,1723655878
197,sabzevar,36.2126,57.6819,32.99,23,42,10.71,IR,1723655733
198,piti village,13.4626,144.6933,27.03,89,0,2.06,GU,1723655881
199,barakani,-12.1356,44.4317,25.07,70,50,0.54,KM,1723655882
200,fortuna,40.5982,-124.1573,18.29,93,75,2.57,US,1723655884
201,imamoglu,37.2651,35.6572,29.84,54,0,3.19,TR,1723655885
202,nar'yan-mar,67.6713,53.087,9.4,91,100,6.79,RU,1723655886
203,sal rei,16.1833,-22.9167,28.11,69,20,6.69,CV,1723655888
204,tsiombe,-25.3,45.4833,21.2,74,0,2.27,MG,1723655891
205,port lincoln,-34.7333,135.8667,13.9,81,55,4.09,AU,1723655892
206,bikenibeu village,1.3673,173.1241,27.98,83,40,4.12,KI,1723655894
207,zamora,-4.0692,-78.9567,29.58,53,84,2.39,EC,1723655895
208,kerikeri,-35.2268,173.9474,9.39,89,56,1.23,NZ,1723655897
209,posto fiscal rolim de moura,-13.0833,-62.2667,37.66,17,0,0.89,BR,1723655898
210,mahanoro,-19.9,48.8,20.64,78,0,3.18,MG,1723655899
211,brokopondo,4.75,-55.1667,30.65,47,5,1.24,SR,1723655901
212,susuman,62.7833,148.1667,-0.72,88,93,2.1,RU,1723655902
213,betio village,1.358,172.9211,28.02,70,91,6.78,KI,1723655904
214,jindabyne,-36.4167,148.6333,6.99,88,46,0.45,AU,1723655905
215,maloye ganyushkino,46.6,49.2667,25.47,24,72,5.48,KZ,1723655907
216,si sa ket,14.8333,104.3333,26.98,79,99,2.92,TH,1723655908
217,gulu,2.7746,32.299,23.09,70,97,1.29,UG,1723655909
218,dudinka,69.4058,86.1778,12.5,69,6,3.34,RU,1723655911
219,selfoss,63.9331,-20.9971,11.69,89,100,5.02,IS,1723655912
220,aketi,2.7388,23.7833,21.87,99,100,1.13,CD,1723655914
221,gonabad,34.3529,58.6837,33.5,19,3,6.82,IR,1723655915
222,acarau,-2.8856,-40.12,31.75,43,10,8.94,BR,1723655917
223,salinopolis,-0.6136,-47.3561,28.78,68,67,6.58,BR,1723655918
224,mutoko,-17.397,32.2268,18.09,26,2,1.77,ZW,1723655919
225,geraldton,-28.7667,114.6,17.23,82,75,4.63,AU,1723655921
226,motygino,58.1831,94.7592,16.39,75,80,1.2,RU,1723655922
227,springbok,-29.6643,17.8865,12.73,46,6,1.6,ZA,1723655924
228,oyotun,-6.8519,-79.3036,28.37,44,21,3.63,PE,1723655925
229,tazovsky,67.4667,78.7,14.39,65,100,8.48,RU,1723655927
230,kutum,14.2,24.6667,22.51,77,98,3.92,SD,1723655928
231,tongouson,5.0214,120.1328,28.16,77,81,3.55,PH,1723655929
232,bulle,46.6195,7.0567,24.27,91,78,1.86,CH,1723655931
233,rongelap,11.1635,166.8941,28.14,79,20,7.88,MH,1723655932
234,lai chau,22.3997,103.4517,18.61,98,100,1.27,VN,1723655934
235,hailar,49.2,119.7,20.24,57,80,2.16,CN,1723655935
236,howrah,22.5892,88.3103,28.0,94,75,0.0,IN,1723655936
237,guozhen,34.3659,107.359,22.29,92,99,3.83,CN,1723655938
238,manokwari,-0.8667,134.0833,24.98,83,77,1.78,ID,1723655939
239,cafayate,-26.073,-65.9761,23.71,6,0,3.29,AR,1723655941
240,mil'kovo,55.6078,37.7956,20.19,49,37,3.29,RU,1723655942
241,recani,31.2846,-4.2688,40.77,8,0,4.23,MA,1723655943
242,nagato,34.3833,131.2,26.14,84,0,0.48,JP,1723655945
243,basco,20.4487,121.9702,29.03,83,94,7.69,PH,1723655946
244,kichmengskiy gorodok,59.9816,45.7854,12.31,84,60,2.6,RU,1723655948
245,ti port-de-paix,19.9333,-72.8333,29.1,76,45,6.53,HT,1723655949
246,ebon,4.582,168.6964,28.68,75,100,5.66,MH,1723655950
247,ha tinh,18.3333,105.9,27.25,84,90,0.78,VN,1723655952
248,mbandaka,0.0487,18.2603,21.44,95,99,1.75,CD,1723655953
249,tambopata,-12.7333,-69.1833,29.94,42,0,1.54,PE,1723655955
250,tolanaro,-25.0319,46.9987,24.04,73,0,8.23,MG,1723655956
251,okhotsk,59.3833,143.3,13.07,92,94,7.68,RU,1723655958
252,ust-nera,64.5667,143.2,2.41,82,57,3.18,RU,1723655959
253,kapa'a,22.0752,-159.319,25.18,84,20,6.17,US,1723655960
254,urengoy,65.9667,78.3667,17.84,52,100,9.83,RU,1723655962
255,goulburn,-34.75,149.7167,9.32,99,100,0.45,AU,1723655403
256,remire-montjoly,4.9167,-52.2667,33.02,55,0,3.6,GF,1723655965
257,ixtapa,20.7,-105.2,32.35,66,40,1.34,MX,1723655966
258,rome,34.257,-85.1647,31.94,54,0,1.54,US,1723655899
259,raymondville,26.4815,-97.7831,35.06,44,88,5.11,US,1723655969
260,punta arenas,-53.15,-70.9167,5.06,87,40,4.12,CL,1723655970
261,dryden,49.7833,-92.7503,26.16,50,20,6.69,CA,1723655972
262,amahai,-3.3333,128.9167,24.77,87,99,4.1,ID,1723655973
263,vadso,70.0744,29.7487,23.49,59,0,4.12,NO,1723655974
264,nelson bay,-32.7167,152.15,16.67,98,51,1.79,AU,1723655976
265,zandvoort,52.3749,4.5341,23.3,77,20,2.68,NL,1723655977
266,namibe,-15.1961,12.1522,18.76,83,62,5.07,AO,1723655979
267,contramaestre,20.2978,-76.2414,34.62,44,6,3.28,CU,1723655980
268,san andres,12.5847,-81.7006,32.01,74,20,5.66,CO,1723655982
269,paragominas,-2.9667,-47.4833,34.54,32,35,2.73,BR,1723655985
270,weatherford,32.7593,-97.7972,36.07,53,0,1.34,US,1723655986
271,wailua homesteads,22.0669,-159.378,24.44,84,20,6.17,US,1723655987
272,georgetown,5.4112,100.3354,27.96,78,20,1.03,MY,1723655989
273,termoli,41.9888,14.9895,32.66,52,5,0.59,IT,1723655990
274,leava,-14.3,-178.1667,24.46,72,100,11.35,WF,1723655992
275,fale old settlement,-9.3852,-171.2468,27.78,75,18,3.85,TK,1723655993
276,ponta delgada,37.7333,-25.6667,27.4,69,20,2.57,PT,1723655994
277,sisimiut,66.9395,-53.6735,7.32,68,99,2.49,GL,1723655996
278,yuzhno-kurilsk,44.0306,145.8556,20.08,100,99,1.69,RU,1723655997
279,umea,63.8284,20.2597,17.96,82,0,3.09,SE,1723655999
280,nikolayevsk-on-amure,53.1406,140.73,16.42,86,0,0.98,RU,1723656000
281,abepura,-2.6333,140.5833,23.45,100,40,1.54,ID,1723656002
282,belmonte,-15.8631,-38.8828,23.87,82,88,5.69,BR,1723656003
283,deshnoke,27.8,73.35,29.47,75,100,4.47,IN,1723656004
284,mount pearl,47.5166,-52.7813,15.74,74,75,5.14,CA,1723656006
285,zhongxiang,31.1661,112.5831,24.91,85,0,2.77,CN,1723656007
286,inarajan village,13.2736,144.7484,27.08,80,100,5.62,GU,1723656009
287,lihue,21.9789,-159.3672,24.77,83,20,6.17,US,1723656010
288,ketchikan,55.3422,-131.6461,15.75,66,70,1.69,US,1723656012
289,kiunga,-6.1219,141.2906,22.79,99,100,0.5,PG,1723656013
290,qaryat suluq,31.6682,20.2521,30.67,43,0,7.96,LY,1723656014
291,cidreira,-30.1811,-50.2056,15.71,56,0,2.09,BR,1723656016
292,livingstone,-17.8419,25.8543,22.49,14,0,1.8,ZM,1723656017
293,kapuskasing,49.4169,-82.4331,27.05,54,0,2.57,CA,1723656019
294,silver city,32.7701,-108.2803,28.54,37,75,3.13,US,1723656020
295,itabira,-19.6192,-43.2269,23.95,40,52,3.07,BR,1723656022
296,kone,-21.0595,164.8658,17.54,91,0,2.4,NC,1723656023
297,nuku'alofa,-21.1333,-175.2,19.19,82,20,5.14,TO,1723656024
298,robore,-18.3333,-59.75,31.05,33,0,5.14,BO,1723656026
299,port-vila,-17.7338,168.3219,21.92,72,100,6.74,VU,1723656027
300,port blair,11.6667,92.75,26.02,94,75,1.03,IN,1723656029
301,ternate,0.8,127.4,25.66,82,24,2.06,ID,1723656030
302,kumamoto,32.7897,130.7417,24.99,94,0,1.03,JP,1723656032
303,egilsstadir,65.2653,-14.3948,13.95,72,75,5.66,IS,1723656033
304,zeya,53.75,127.2667,19.67,91,5,1.63,RU,1723656034
305,kuqa,41.7278,82.9364,29.7,25,98,2.24,CN,1723656036
306,skelleftea,64.7507,20.9528,20.56,85,0,3.09,SE,1723656037
307,taoudenni,22.6783,-3.9836,45.01,11,3,0.85,ML,1723656039
308,kenai,60.5544,-151.2583,10.03,90,0,1.54,US,1723656040
309,choele choel,-39.2667,-65.6833,18.0,33,100,4.25,AR,1723656041
310,kolonia,50.9333,6.95,23.19,85,0,2.57,DE,1723656043
311,pandan,14.0453,124.1694,27.38,84,100,2.93,PH,1723656044
312,fomboni,-12.28,43.7425,25.41,70,14,0.75,KM,1723656046
313,sao gabriel da cachoeira,-0.1303,-67.0892,30.89,66,40,1.03,BR,1723656047
314,someshwar,13.5,75.0667,25.61,97,64,0.53,IN,1723656049
315,juan griego,11.0817,-63.9655,37.07,47,23,4.63,VE,1723656050
316,mao,39.8885,4.2658,29.31,39,0,3.6,ES,1723656051
317,prince rupert,54.3161,-130.3201,13.83,86,100,3.09,CA,1723656053
318,medeiros neto,-17.3739,-40.2206,25.21,54,100,4.14,BR,1723656054
319,sinabang,2.4803,96.3801,26.78,83,100,1.12,ID,1723656057
320,soto la marina,23.7667,-98.2167,32.74,49,83,3.61,MX,1723656059
321,viedma,-40.8135,-62.9967,16.85,41,96,2.53,AR,1723656060
322,kasaoka,34.5,133.5,28.1,73,1,1.67,JP,1723656061
323,lazaro cardenas,17.9583,-102.2,27.44,78,97,0.83,MX,1723656063
324,mebane,36.096,-79.267,30.11,59,75,1.54,US,1723656064
325,kalmunai,7.4167,81.8167,27.86,80,88,4.97,LK,1723656066
326,ola,59.5833,151.2833,8.83,73,100,4.91,RU,1723656068
327,barah,13.7,30.3667,30.11,51,100,2.28,SD,1723656071
328,mount gambier,-37.8333,140.7667,10.05,98,89,1.95,AU,1723656073
329,pokhara,28.2333,83.9833,21.85,88,100,1.94,NP,1723656074
330,pangoa,-12.1167,-73.0,29.91,40,4,1.98,PE,1723656076
331,sao vicente,-23.9631,-46.3919,27.93,64,81,2.37,BR,1723656077
332,coquimbo,-29.9533,-71.3436,13.85,86,100,1.03,CL,1723656078
333,pale,43.8161,18.5694,33.86,14,0,3.09,BA,1723656080
334,mansoa,12.0733,-15.3189,32.11,80,97,1.79,GW,1723656081
335,fukuecho,32.6881,128.8419,28.15,75,52,0.78,JP,1723656083
336,laela,-8.5667,32.05,22.47,36,28,0.98,TZ,1723656084
337,tukrah,32.5341,20.5791,28.66,66,0,4.86,LY,1723656086
338,alpena,45.0617,-83.4327,27.28,48,0,1.54,US,1723656087
339,plettenberg bay,-34.0527,23.3716,12.03,65,100,8.74,ZA,1723656088
340,buka,40.8108,69.1986,30.4,26,0,3.95,UZ,1723656090
341,shamli,29.45,77.3167,27.37,83,2,3.18,IN,1723656091
342,rabaul,-4.1967,152.1721,26.03,80,77,1.53,PG,1723656093
343,vila velha,-20.3297,-40.2925,22.97,79,20,5.66,BR,1723656094
344,shingu,33.7333,135.9833,24.73,91,7,1.96,JP,1723656095
345,juan de ayolas,-27.4,-56.9,22.39,39,0,2.97,PY,1723656097
346,kuusamo,65.9667,29.1833,21.02,56,0,2.06,FI,1723656098
347,gokwe,-18.2048,28.9349,19.69,13,0,1.09,ZW,1723656100
348,hornell,42.3279,-77.6611,26.55,60,5,3.58,US,1723656101
349,bontang,0.1333,117.5,25.11,89,27,3.3,ID,1723656103
350,new norfolk,-42.7826,147.0587,8.84,85,99,1.0,AU,1723656104
351,faya-largeau,17.9257,19.1043,35.73,38,16,3.41,TD,1723656105
352,palikir - national government center,6.9248,158.1611,28.58,74,50,5.26,FM,1723656107
353,borzya,50.3833,116.5167,18.83,57,5,1.67,RU,1723656108
354,guatire,10.4762,-66.5427,33.16,48,100,2.96,VE,1723656110
355,antanifotsy,-19.65,47.3167,11.06,90,1,1.42,MG,1723656111
356,kogalym,62.2654,74.4791,14.28,88,79,7.07,RU,1723656112
357,tapes,-30.6733,-51.3958,16.28,57,0,2.05,BR,1723656114
358,khromtau,50.2503,58.4347,17.13,54,5,4.05,KZ,1723656117
359,luganville,-15.5333,167.1667,24.02,76,92,6.48,VU,1723656118
360,calderitas,18.55,-88.25,31.06,74,40,4.12,MX,1723656120
361,sao martinho,39.5144,-9.1311,23.49,80,77,4.02,PT,1723656121
362,saguenay,48.4168,-71.0657,24.46,62,75,1.03,CA,1723656122
363,geiro,-6.15,36.8667,19.91,53,20,2.84,TZ,1723656124
364,piranhas,-16.4269,-51.8222,36.42,11,2,3.3,BR,1723656125
365,rantepao,-2.9701,119.8978,17.58,88,6,1.09,ID,1723656127
366,maragogi,-9.0122,-35.2225,26.32,65,47,6.37,BR,1723656128
367,haiku-pauwela,20.9219,-156.3051,22.87,76,20,6.69,US,1723656130
368,piton saint-leu,-21.2196,55.3151,20.04,73,0,1.54,RE,1723656131
369,katsuura,35.1333,140.3,26.53,91,3,0.87,JP,1723656132
370,kurumkan,54.3,110.3,17.85,95,94,1.49,RU,1723656134
371,nouadhibou,20.931,-17.0347,27.99,57,0,8.75,MR,1723656135
372,lerwick,60.1545,-1.1494,14.0,83,62,6.64,GB,1723656137
373,peto,20.1333,-88.9167,34.03,48,100,1.71,MX,1723656138
374,beloyarskiy,63.7119,66.6722,13.23,98,99,4.75,RU,1723656140
375,broken hill,-31.95,141.4333,14.27,55,0,4.01,AU,1723656142
376,madang,-5.2246,145.7966,24.54,93,57,1.28,PG,1723656144
377,monee,41.42,-87.7417,29.28,49,14,3.53,US,1723655911
378,can,40.0333,27.0524,30.89,48,0,5.53,TR,1723656147
379,necochea,-38.5473,-58.7368,17.1,45,82,5.38,AR,1723656148
380,north bend,43.4065,-124.2243,19.4,72,40,3.6,US,1723656005
381,utrik,11.2278,169.8474,27.86,74,100,8.3,MH,1723656151
382,sabang,5.8933,95.3214,29.07,74,100,3.55,ID,1723656152
383,palmer,42.1584,-72.3287,28.78,48,40,4.12,US,1723656154
384,sinop,41.7711,34.8709,19.18,89,26,2.18,TR,1723656155
385,perdoes,-21.0908,-45.0914,27.38,24,55,3.22,BR,1723656156
386,lensk,60.7253,114.9278,13.51,88,100,2.11,RU,1723656158
387,aripuana,-9.1667,-60.6333,38.26,18,0,1.9,BR,1723656159
388,saipan,15.1355,145.701,28.39,83,0,3.09,MP,1723656161
389,bardai,11.65,7.2333,23.81,85,87,4.72,NG,1723656162
390,fada,7.25,4.0667,28.37,74,75,4.12,NG,1723656163
391,al majaridah,19.1236,41.9111,30.17,79,79,1.13,SA,1723656165
392,kencong,-8.2833,113.3667,21.29,89,72,0.93,ID,1723656166
393,talnakh,69.4865,88.3972,13.86,59,41,1.74,RU,1723656168
394,puerto deseado,-47.7503,-65.8938,5.77,90,100,9.22,AR,1723656169
395,villa gesell,-37.2639,-56.973,17.81,56,100,4.11,AR,1723656171
396,ubari,26.5921,12.7805,38.01,14,66,4.96,LY,1723656172
397,saldanha,-33.0117,17.9442,11.03,68,4,4.65,ZA,1723656173
398,xiaoweizhai,26.1903,107.5125,20.95,88,15,1.56,CN,1723656175
399,kavieng,-2.5744,150.7967,27.54,80,42,4.12,PG,1723656176
400,kimbe,-5.5502,150.1429,23.89,92,50,1.67,PG,1723656178
401,brookings,44.3114,-96.7984,20.25,99,100,7.2,US,1723656002
402,saint joseph,39.7686,-94.8466,26.79,78,0,7.72,US,1723656180
403,karratha,-20.7377,116.8463,22.96,35,0,4.5,AU,1723656182
404,la ronge,55.1001,-105.2842,22.12,64,40,3.6,CA,1723656183
405,concepcion del uruguay,-32.4825,-58.2372,20.55,43,1,0.89,AR,1723656185
406,snyder,32.7179,-100.9176,34.62,36,1,5.14,US,1723656186
407,estevan,49.1334,-102.9842,22.19,78,100,3.6,CA,1723656187
408,mallammaduri,12.565,9.9573,27.52,71,83,3.01,NG,1723656189
409,maturin,9.75,-63.1767,30.91,100,100,3.09,VE,1723656190
410,uturoa,-16.7333,-151.4333,25.35,79,31,3.65,PF,1723656192
411,areia branca,-4.9561,-37.1369,35.11,43,3,8.3,BR,1723656193
412,viale,-31.8678,-60.0072,20.84,32,2,4.52,AR,1723656194
413,lumut,4.2323,100.6298,27.01,89,20,0.0,MY,1723656196
414,al jawf,29.5,38.75,35.31,15,0,4.58,SA,1723656197
415,polyarnyy,69.1989,33.4478,16.51,59,27,2.1,RU,1723656199
416,ribeira brava,32.65,-17.0667,27.29,59,0,2.68,PT,1723656200
417,margate,51.3813,1.3862,24.37,66,89,0.83,GB,1723656203
418,mairwa,26.2333,84.15,29.53,77,100,1.9,IN,1723656204
419,zavetnoye,47.1194,43.8903,23.62,28,5,3.95,RU,1723656206
420,alnashi,56.1874,52.4792,12.4,91,41,3.0,RU,1723656207
421,salamanca,40.8333,-6.0,28.88,23,5,5.73,ES,1723656208
422,ballina,-28.8667,153.5667,15.99,93,36,1.94,AU,1723656210
423,greymouth,-42.4667,171.2,6.58,93,100,1.73,NZ,1723656108
424,petrolina,-9.3986,-40.5008,33.03,33,40,7.72,BR,1723655986
425,vallenar,-28.5708,-70.7581,21.65,41,30,1.9,CL,1723656214
426,mhangura,-16.8939,30.1683,20.86,17,0,1.58,ZW,1723656215
427,wanning,18.8003,110.3967,27.58,86,100,2.67,CN,1723656217
428,muleshoe,34.2265,-102.7238,32.91,32,69,5.89,US,1723656218
429,tashla,51.7716,52.7427,16.91,71,74,3.91,RU,1723656220
430,timbuktu,16.7735,-3.0074,35.52,36,97,2.86,ML,1723656221
431,fougamou,-1.2154,10.5838,29.01,54,98,2.64,GA,1723656222
432,scottburgh,-30.2867,30.7532,17.72,57,3,6.57,ZA,1723656224
433,kuching,1.55,110.3333,27.12,96,40,3.09,MY,1723656225
434,masjed soleyman,31.9364,49.3039,39.05,9,0,2.92,IR,1723656227
435,marquette,46.5333,-87.6335,27.92,54,7,1.34,US,1723656228
436,roswell,34.0232,-84.3616,31.33,60,75,1.03,US,1723656230
437,puerto leguizamo,-0.1934,-74.7819,23.98,86,100,0.59,CO,1723656231
438,shendi,16.6915,33.4341,33.26,46,58,6.1,SD,1723656232
439,chibougamau,49.9168,-74.3659,24.79,44,20,3.09,CA,1723656234
440,saint-francois,46.4154,3.9054,23.69,75,0,2.06,FR,1723656235
441,arraial do cabo,-22.9661,-42.0278,24.98,56,0,8.23,BR,1723656237
442,tayoltita,24.0833,-105.9333,28.76,70,97,1.97,MX,1723656238
443,jayapura,-2.5333,140.7,23.66,96,48,1.85,ID,1723656239
444,mardin,37.3131,40.7436,33.59,19,0,2.06,TR,1723656241
445,tchintabaraden,15.8969,5.7985,30.32,53,93,4.56,NE,1723656242
446,yur'yevets,57.3201,43.1041,14.78,79,81,5.8,RU,1723656137
447,mili,6.0815,171.735,28.84,75,100,6.5,MH,1723656245
448,sao jose da coroa grande,-8.8978,-35.1478,26.46,63,55,6.71,BR,1723656246
449,santo antonio do ica,-3.1022,-67.9397,29.45,48,75,0.76,BR,1723656248
450,howard springs,-12.497,131.047,22.95,91,11,1.95,AU,1723656249
451,chanika,-5.4167,38.0167,20.81,80,11,4.05,TZ,1723656251
452,nynashamn,58.9034,17.9479,21.76,74,92,4.05,SE,1723656252
453,pitimbu,-7.4706,-34.8086,28.33,71,63,7.8,BR,1723656254
454,khadzhalmakhi,42.42,47.1821,19.97,68,100,1.22,RU,1723656255
455,saint-louis,16.3333,-15.0,36.8,32,21,5.61,SN,1723656256
456,yamada,39.4667,141.95,22.88,95,37,1.25,JP,1723656258
457,san nicolas,18.1725,120.5953,26.86,85,100,2.15,PH,1723656259
458,usinsk,65.9939,57.5281,13.08,85,100,7.22,RU,1723656171
459,rikaze,29.25,88.8833,14.8,53,91,2.11,CN,1723656262
460,riyadh,24.6877,46.7219,40.08,13,3,6.44,SA,1723655982
461,grand falls-windsor,48.9332,-55.6649,20.84,47,0,0.58,CA,1723656265
462,mata-utu,-13.2816,-176.1745,25.25,78,100,11.6,WF,1723656266
463,puerto penasco,31.3167,-113.5333,34.99,76,0,7.72,MX,1723656268
464,kabalo,-6.05,26.9167,33.16,25,70,0.63,CD,1723656269
465,richards bay,-28.783,32.0377,19.2,65,9,5.0,ZA,1723656272
466,ponnani,10.767,75.9252,24.62,91,71,3.9,IN,1723656273
467,heroica matamoros,25.8833,-97.5,33.97,59,75,3.09,MX,1723656101
468,jumla,29.2747,82.1838,16.22,97,100,1.0,NP,1723656277
469,wenshui,28.4506,106.5267,20.01,84,0,1.21,CN,1723656279
470,pangai,-19.8,-174.35,21.06,60,40,4.12,TO,1723656280
471,taroudant,30.4703,-8.877,33.03,28,0,8.19,MA,1723656282
472,ostersund,63.1792,14.6357,21.25,59,0,5.14,SE,1723656283
473,pisco,-13.7,-76.2167,16.12,88,100,3.09,PE,1723656285
474,mwinilunga,-11.7358,24.4293,22.57,20,0,2.55,ZM,1723656286
475,samarinda,-0.5,117.15,22.75,97,28,0.9,ID,1723656289
476,burang,30.25,81.1667,11.39,79,96,1.66,CN,1723656290
477,carbonear,47.7332,-53.2148,16.75,74,61,4.53,CA,1723656292
478,mufumbwe,-13.6833,24.8,22.51,16,0,2.36,ZM,1723656293
479,columbus,39.9612,-82.9988,29.74,39,0,4.63,US,1723656295
480,labrador city,52.9463,-66.9114,25.66,39,75,4.12,CA,1723656296
481,codrington,-38.2667,141.9667,10.28,91,93,2.84,AU,1723656297
482,maraba,-5.3686,-49.1178,32.1,55,75,1.54,BR,1723656299
483,ilorin,8.5,4.55,26.46,76,54,3.5,NG,1723656300
484,edd,13.9297,41.6925,33.05,59,70,2.4,ER,1723656302
485,kingston,17.997,-76.7936,32.87,66,20,3.6,JM,1723656057
486,mhamid,29.82,-5.72,43.56,5,0,7.47,MA,1723656304
487,syas'stroy,60.1367,32.5691,16.47,75,2,1.97,RU,1723656306
488,malindi,-3.2175,40.1191,25.09,78,20,4.12,KE,1723656307
489,puerto madryn,-42.7692,-65.0385,10.16,66,100,2.49,AR,1723656309
490,ust-tsilma,65.441,52.1498,12.8,78,93,5.11,RU,1723656310
491,haqqulobod,40.9167,72.1167,30.29,23,35,1.8,UZ,1723656312
492,barcelos,41.5388,-8.6151,29.95,46,65,6.63,PT,1723656313
493,irbit,57.6705,63.071,12.05,94,81,2.51,RU,1723656314
494,port isabel,26.0734,-97.2086,34.48,75,97,2.24,US,1723656316
495,pando,-34.7167,-55.95,19.05,37,0,1.54,UY,1723656317
496,dalandzadgad,43.5708,104.425,19.73,61,83,1.4,MN,1723656319
497,mahajanga,-15.7167,46.3167,25.01,73,20,2.06,MG,1723656320
498,pangody,65.85,74.4859,16.63,76,98,9.67,RU,1723656322
499,grootfontein,-19.5667,18.1167,21.76,11,0,2.57,NA,1723656323
500,lorengau,-2.0226,147.2712,27.21,78,50,2.09,PG,1723656324
501,shihezi,44.3,86.0333,28.71,26,48,2.18,CN,1723656326
502,khabarovsk,48.4808,135.0928,16.89,94,82,1.0,RU,1723656262
503,yaren,-0.5472,166.916,28.94,75,26,5.77,NR,1723656329
504,sungai raya,0.7,108.9,25.57,89,71,1.15,ID,1723656330
505,xinyuan,37.3,99.0,3.91,77,18,0.76,CN,1723656331
506,tianpeng,30.9866,103.9393,28.26,72,100,1.79,CN,1723656333
507,mar del plata,-38.0023,-57.5575,16.96,82,100,2.68,AR,1723656223
508,oqtosh,39.9214,65.9253,32.57,24,2,2.67,UZ,1723656336
509,paraty,-23.2178,-44.7131,23.23,54,48,1.94,BR,1723656337
510,miracatu,-24.2814,-47.4597,23.23,45,92,1.3,BR,1723656338
511,great bend,38.3645,-98.7648,35.34,42,1,3.13,US,1723656340
512,wad az zaki,14.4619,32.2065,30.06,56,94,2.1,SD,1723656341
513,cozumel,20.5083,-86.9458,32.75,62,40,2.06,MX,1723656343
514,carmi,38.0909,-88.1587,30.64,47,10,2.73,US,1723656344
515,clemmons,36.0215,-80.382,28.86,56,20,2.57,US,1723656345
516,dauphin,51.1494,-100.0502,23.08,78,40,5.14,CA,1723656347
517,alleroy,43.21,46.28,21.08,62,97,4.63,RU,1723656348
518,mabamba,-3.5983,30.5019,26.66,32,100,0.54,TZ,1723656350
519,anloga,5.7947,0.8973,26.21,75,66,6.47,GH,1723656351
520,tofol,5.3248,163.0078,28.44,76,15,4.5,FM,1723656353
521,whangarei,-35.7317,174.3239,5.74,97,54,0.8,NZ,1723656172
522,konarka,19.9,86.1167,28.22,84,100,4.03,IN,1723656355
523,opuwo,-18.0607,13.84,25.42,8,0,3.76,NA,1723656357
524,paita,-5.0892,-81.1144,21.73,66,52,4.56,PE,1723656358
525,voznesensk,47.5649,31.3308,24.72,27,2,1.76,UA,1723656359
526,reutte,47.4833,10.7167,19.33,95,85,2.36,AT,1723656361
527,lalibela,12.0333,39.0333,15.37,86,100,0.56,ET,1723656364
528,fort st. john,56.2499,-120.8529,15.94,82,75,2.06,CA,1723656365
529,kaoma,-14.7833,24.8,24.98,11,0,4.35,ZM,1723656367
530,bafata,12.1667,-14.75,25.72,90,98,1.84,GW,1723656368
531,california,38.3004,-76.5074,29.82,52,75,4.63,US,1723656370
532,caleta olivia,-46.4393,-67.5281,10.48,53,21,6.38,AR,1723656371
533,lae,-6.7221,146.9847,22.24,90,20,2.45,PG,1723656372
534,guerrero negro,27.9769,-114.0611,25.57,59,0,4.6,MX,1723656374
535,yauya,-8.9833,-77.3,16.75,27,4,2.11,PE,1723656375
536,kiskunfelegyhaza,46.7121,19.8446,35.08,50,4,6.56,HU,1723656377
537,nappanee,41.4428,-86.0014,27.9,51,40,2.06,US,1723656378
538,east london,-33.0153,27.9116,14.52,41,0,11.32,ZA,1723656379
539,apia,-13.8333,-171.7667,23.95,79,84,11.57,WS,1723656381
540,massawa,15.6097,39.45,33.88,62,53,2.82,ER,1723656382
541,noosa heads,-26.3833,153.15,19.08,93,48,2.26,AU,1723656384
542,general conesa,-40.1,-64.4333,16.96,37,100,3.53,AR,1723656385
543,kismayo,-0.3582,42.5454,25.07,80,24,6.35,SO,1723656387
544,tangalle,6.024,80.7911,26.13,90,89,3.46,LK,1723656388
545,aral,40.5156,81.2636,31.72,23,100,4.07,CN,1723656389
546,naze,28.3667,129.4833,26.51,84,93,1.74,JP,1723656391
547,hajin,34.6927,40.827,38.14,13,0,2.05,SY,1723656392
548,rio grande,-32.035,-52.0986,18.06,56,0,1.54,BR,1723656394
549,omdurman,15.6445,32.4777,32.02,47,29,3.8,SD,1723656395
550,mont-laurier,46.5501,-75.4993,26.79,48,85,2.39,CA,1723656397
551,bandarbeyla,9.4942,50.8122,25.16,84,100,13.47,SO,1723656398
552,tanjung selor,2.8372,117.3642,23.56,98,84,0.88,ID,1723656399
553,bamboo flat,11.7,92.7167,26.05,94,75,1.03,IN,1723656401
554,bukama,-9.2,25.85,30.15,15,0,0.89,CD,1723656402
555,palm springs,33.8303,-116.5453,37.14,20,0,1.54,US,1723656404
556,elverum,60.8819,11.5623,16.39,95,100,2.68,NO,1723656405
557,charlottetown,46.2352,-63.1267,22.1,72,40,4.63,CA,1723656071
558,san ignacio de velasco,-16.3667,-60.95,34.23,17,0,4.69,BO,1723656408
559,chui,-33.6971,-53.4616,16.61,48,1,2.21,UY,1723656409
560,port pirie,-33.1833,138.0167,16.39,55,96,4.41,AU,1723656411
561,castillos,-34.1667,-53.8333,17.86,45,4,1.71,UY,1723656412
562,alotau,-10.3069,150.4462,23.89,97,90,1.31,PG,1723656414
563,patterson,37.4716,-121.1297,27.08,53,0,1.99,US,1723656415
564,hasanbeyli,37.1372,36.5593,25.28,69,0,3.23,TR,1723656417
565,shimoda,34.6667,138.95,26.17,85,5,0.7,JP,1723656418
566,quebo,11.3333,-14.9333,24.66,90,100,1.67,GW,1723656419
567,avanigadda,16.0215,80.9181,29.41,82,84,2.04,IN,1723656421
568,manismata,-2.4667,111.0333,23.49,93,97,1.21,ID,1723656422
569,quellon,-43.1167,-73.6167,9.7,75,7,3.58,CL,1723656424
570,hawera,-39.5917,174.2833,11.24,94,21,3.67,NZ,1723656425
571,sona,45.4388,10.8255,29.75,51,75,4.63,IT,1723656426
572,hengelo,52.2658,6.7931,21.35,91,100,4.02,NL,1723656428
573,argo,37.6333,22.7333,32.1,33,0,0.97,GR,1723656429
574,crane,31.3974,-102.3501,32.75,37,2,7.04,US,1723656431
575,emerald,-23.5333,148.1667,14.63,98,0,1.14,AU,1723656432
576,kayenta,36.7278,-110.2546,26.35,27,63,5.38,US,1723656433
577,sacaba,20.5833,-89.9833,34.81,45,66,2.43,MX,1723656436
578,nampula,-15.1165,39.2666,23.48,54,0,4.37,MZ,1723656438
579,gamay,12.3854,125.2979,24.43,94,51,1.42,PH,1723656439
580,klaksvik,62.2266,-6.589,11.51,95,100,13.99,FO,1723656441
581,vrangel',42.7297,133.0839,20.08,97,38,1.05,RU,1723656442
582,jijel,36.8205,5.7667,27.97,65,40,2.06,DZ,1723656443
583,puerto aysen,-45.4,-72.7,8.56,84,52,2.09,CL,1723656445
584,banda aceh,5.5577,95.3222,26.83,84,99,2.35,ID,1723656446
585,walvis bay,-22.9575,14.5053,18.53,63,4,3.6,NA,1723656448
586,yuncheng,35.0231,110.9928,24.02,78,54,2.38,CN,1723656449
587,behshahr,36.6923,53.5526,26.97,74,14,0.91,IR,1723656451
